FID_1,Nat_EMIS_N,GIS_Long,GIS_Lat,SP_Name,Name,Sector,PASSRATE,Employed,Unemployed,Notactive,FemaleHead,african,Coloured,Indian,White,Owned,Telephone,Easting,Northing
217,104312245,18.445670,-34.196928,Simon's Town SP1,SIMON'S TOWN,PUBLIC,96.9,45,4,23,16,0,7,4,89,58,85,-51093.474429,-3785644.433480
215,104313491,18.349148,-34.149474,Ocean View,OCEAN VIEW,PUBLIC,78.4,36,11,18,44,2,98,0,0,66,58,-60023.780506,-3780433.038690
213,104373427,18.377823,-34.131674,Masiphumelele,MASIPHUMELELE,PUBLIC,82.4,32,30,11,32,94,3,0,3,5,35,-57391.268871,-3778442.038850
36,104314201,18.419000,-34.134073,Fish Hoek SP,FISH HOEK,PUBLIC,100.0,36,3,23,29,1,2,1,97,66,92,-53591.427811,-3778685.774430
5,105313904,18.343034,-34.053080,Hout Bay Harbour,HOUTBAAI,PUBLIC,83.0,36,13,18,35,4,94,0,2,46,55,-60656.385814,-3769743.959160
214,104310265,18.476996,-34.097474,Muizenberg SP,MUIZENBERG,PUBLIC,92.5,35,14,20,33,27,35,1,36,58,45,-48262.604801,-3774597.064850
218,105313521,18.472873,-34.071063,Steenberg,STEENBERG,PUBLIC,90.3,34,10,23,34,4,80,1,15,84,80,-48658.182924,-3771669.361700
230,105310323,18.458746,-34.059614,Dreyersdal,ZWAANSWYK,PUBLIC,92.9,39,2,22,40,1,8,0,91,72,95,-49968.956515,-3770406.187960
220,105483613,18.427881,-34.047864,Porter Reform Estate,CAPE,PUBLIC,101.0,41,3,30,20,4,4,0,92,72,93,-52825.798791,-3769118.308240
216,105313106,18.472927,-34.064616,Retreat,SIBELIUS,PUBLIC,89.1,35,9,23,39,2,95,1,2,71,71,-48656.883519,-3770954.200110
211,105313599,18.477958,-34.063084,Retreat,CRESTWAY,PUBLIC,76.6,35,9,23,39,2,95,1,2,71,71,-48193.307857,-3770781.880820
212,105313661,18.487880,-34.067073,Lavender Hill,LAVENDER HILL,PUBLIC,58.1,25,15,25,48,2,98,0,0,35,47,-47275.114780,-3771219.731320
222,105313467,18.466472,-34.051883,Heathfield,HEATHFIELD,PUBLIC,81.9,45,5,22,29,2,73,2,23,73,88,-49260.150851,-3769544.878350
219,105310201,18.452426,-34.041043,Meadowridge,BERGVLIET,PUBLIC,98.7,40,2,26,16,1,5,0,93,86,98,-50563.453733,-3768349.301130
221,105000822,18.437892,-34.030779,Sillery,CONSTANTIA WALDORF,INDEPENDENT,100.0,40,1,27,21,3,6,1,90,82,95,-51911.803831,-3767218.042030
72,103315605,18.357200,-34.019189,Hout Bay SP,DOMINICAN GRIMLEY,PUBLIC,0.0,48,2,21,28,2,3,0,95,70,93,-59372.053755,-3765976.257530
233,105313408,18.497029,-34.050969,Grassy Park SP,GRASSY PARK,PUBLIC,75.8,39,6,24,27,3,94,2,1,71,80,-46439.321350,-3769429.203180
225,105313351,18.461666,-34.029293,Plumstead,SOUTH PENINSULA,PUBLIC,100.0,45,4,21,31,2,19,3,76,68,89,-49717.068996,-3767041.407630
232,105313815,18.504100,-34.043200,Grassy Park SP,GRASSDALE HOER,PUBLIC,90.1,39,6,24,27,3,94,2,1,71,80,-45790.625677,-3768564.241790
231,105313769,18.498812,-34.036497,Parkwood,FAIRMOUNT,PUBLIC,77.9,28,15,22,54,1,99,0,0,22,58,-46282.556730,-3767823.092080
236,106493406,18.553198,-34.076812,Strandfontein Village,STRANDFONTEIN,PUBLIC,89.8,42,6,19,19,2,96,2,1,92,85,-41240.673192,-3772271.764190
37,105310269,18.458175,-34.015001,Plumstead,NORMAN,PUBLIC,100.0,45,4,21,31,2,19,3,76,68,89,-50047.867370,-3765457.773220
235,105062454,18.523128,-34.047489,Pelikan Park,PELIKAN PARK,PUBLIC,80.0,34,10,24,16,6,56,37,1,74,75,-44031.377634,-3769031.647450
224,105310279,18.484802,-34.021775,Plumstead,PLUMSTEAD,PUBLIC,94.1,45,4,21,31,2,19,3,76,68,89,-47584.550578,-3766196.483240
223,105319228,18.472583,-34.013959,Wynberg,IMMACULATA RK,PUBLIC,96.4,43,6,22,31,7,50,13,30,51,83,-48717.594739,-3765335.242910
237,105313890,18.523293,-34.043378,Lotus River,ZEEKOEVLEI,PUBLIC,44.6,34,10,24,28,1,98,1,0,63,72,-44018.266589,-3768575.565230
38,105000935,18.457774,-34.003507,Wynberg,SPRINGFIELD,INDEPENDENT,100.0,43,6,22,31,7,50,13,30,51,83,-50091.656709,-3764183.003870
229,105313696,18.478750,-34.013196,Wynberg,WYNBERG,PUBLIC,67.2,43,6,22,31,7,50,13,30,51,83,-48148.372700,-3765247.691360
39,105007428,18.470854,-34.008762,Wynberg,SHILOAH,INDEPENDENT,100.0,43,6,22,31,7,50,13,30,51,83,-48880.282529,-3764759.592690
226,105313424,18.474666,-34.008444,Wynberg,WITTEBOME,PUBLIC,83.8,43,6,22,31,7,50,13,30,51,83,-48528.323159,-3764722.506280
262,105003392,18.478161,-34.010300,Wynberg,JOHN WYCLIFFE,INDEPENDENT,50.0,43,6,22,31,7,50,13,30,51,83,-48204.416383,-3764926.731530
227,105310318,18.458163,-33.996268,Wynberg,WYNBERG BOYS,PUBLIC,100.0,43,6,22,31,7,50,13,30,51,83,-50059.966333,-3763379.833030
234,105493341,18.511226,-34.027035,Lotus River,LOTUS,PUBLIC,100.0,34,10,24,27,1,98,1,0,64,68,-45141.177609,-3766767.981180
228,105310321,18.463771,-34.002830,Wynberg,WYNBERG GIRLS,PUBLIC,100.0,43,6,22,31,7,50,13,30,51,83,-49538.031705,-3764104.992130
40,105006043,18.519507,-34.030016,Lotus River,AL-AZHAR,INDEPENDENT,94.1,34,10,24,27,1,98,1,0,64,68,-44374.790426,-3767094.980480
67,105310311,18.471731,-33.999646,Kenilworth,VOORTREKKER,PUBLIC,97.8,51,3,19,39,12,16,4,68,56,82,-48804.482253,-3763747.989150
1,105000844,18.463429,-33.986916,Claremont,HERSCHEL,INDEPENDENT,100.0,49,2,22,34,6,9,4,82,67,92,-49578.843112,-3762339.878020
41,105008291,18.515100,-34.011223,Athlone SP,CHRISTEL HOUSE SOU,INDEPENDENT,100.0,43,4,20,19,3,48,11,38,76,90,-44791.692314,-3765012.346030
42,105008330,18.517023,-34.009164,Wetton,THE ORACLE,INDEPENDENT,94.4,43,4,20,19,3,48,11,38,76,90,-44615.134239,-3764783.114130
45,105000798,18.471393,-33.984665,Claremont,ABBOTT'S,INDEPENDENT,98.9,49,2,22,34,6,9,4,82,67,92,-48844.280556,-3762086.397330
53,105313343,18.474931,-33.984486,Claremont,LIVINGSTONE,PUBLIC,97.6,49,2,22,34,6,9,4,82,67,92,-48517.460944,-3762064.861610
55,105313432,18.493575,-33.989861,Romp Vlei,OAKLANDS,PUBLIC,59.0,40,5,23,22,3,72,10,15,80,91,-46791.753578,-3762652.408610
52,105310240,18.471217,-33.974278,Newlands,GROOTE SCHUUR,PUBLIC,99.1,42,2,28,28,5,5,3,88,67,94,-48866.486562,-3760934.315670
61,105310296,18.462921,-33.975910,Newlands,SANS SOUCI,PUBLIC,100.0,42,2,28,28,5,5,3,88,67,94,-49632.205918,-3761119.328390
113,105007209,18.482631,-33.983204,Claremont,HERITAGE,INDEPENDENT,93.3,49,2,22,34,6,9,4,82,67,92,-47806.675423,-3761919.039240
62,105310293,18.458594,-33.971052,Newlands,S.A COLLEGE,PUBLIC,100.0,42,2,28,28,5,5,3,88,67,94,-50034.919904,-3760582.563870
51,105483443,18.518423,-33.998985,Yorkshire Estate,GROENVLEI,PUBLIC,74.8,40,5,23,22,3,72,10,15,80,91,-44491.115215,-3763653.410470
254,106493333,18.601301,-34.064688,Rocklands,CEDAR,PUBLIC,92.6,37,10,23,24,3,96,0,1,90,73,-36805.889167,-3770908.557430
252,106493449,18.595339,-34.050523,Westridge B,WESTRIDGE,PUBLIC,68.4,37,10,25,23,3,96,0,0,93,84,-37362.489291,-3769339.473680
68,105310316,18.464763,-33.969039,Rondebosch,WESTERFORD,PUBLIC,100.0,40,1,30,32,8,7,6,79,60,90,-49465.960920,-3760356.281290
12,105003386,18.497407,-33.985724,Lansdowne,ISLAMIA,INDEPENDENT,100.0,40,5,23,22,3,72,10,15,80,91,-46439.919116,-3762191.740910
69,105310317,18.500797,-33.986364,Lansdowne,WINDSOR,PUBLIC,95.6,40,5,23,22,3,72,10,15,80,91,-46126.351033,-3762261.234350
257,106493430,18.609021,-34.068850,Rocklands,GLENDALE,PUBLIC,55.8,37,10,23,24,3,96,0,1,90,73,-36091.448614,-3771367.474500
58,105310288,18.476767,-33.968290,Rondebosch,RONDEBOSCH BOYS',PUBLIC,100.0,40,1,30,32,8,7,6,79,60,90,-48356.977773,-3760267.473650
259,106493384,18.609194,-34.057854,Rocklands,ROCKLANDS,PUBLIC,93.5,37,10,23,24,3,96,0,1,90,73,-36080.138753,-3770147.687660
251,106493481,18.598938,-34.040633,Woodlands,PRINCETON,PUBLIC,85.0,30,14,23,31,4,96,0,0,73,66,-37034.489577,-3768241.124750
114,105313610,18.524749,-33.989917,Mountview,MOUNT VIEW,PUBLIC,66.7,34,6,31,32,1,75,24,0,73,85,-43911.339346,-3762644.825240
3,103000806,18.422571,-33.943301,Vredehoek,HERZLIA,INDEPENDENT,99.0,53,3,18,37,6,7,1,85,52,82,-53381.414668,-3757522.482400
245,106007098,18.570704,-34.018354,Weltevreden Valley Nort,SOPHUMELELA,PUBLIC,78.8,21,33,16,42,95,5,0,0,33,13,-39652.027101,-3765780.422590
4,103000818,18.416563,-33.941296,Oranjezicht,ST. CYPRIAN'S,INDEPENDENT,98.1,59,2,20,35,6,4,1,90,52,80,-53938.065056,-3757303.231350
0,105000876,18.478903,-33.963135,Rondebosch,DIOCESAN,INDEPENDENT,100.0,40,1,30,32,8,7,6,79,60,90,-48162.474093,-3759694.629690
260,106493422,18.620362,-34.060577,Rocklands,SPINE ROAD,PUBLIC,95.4,37,10,23,24,3,96,0,1,90,73,-35047.955827,-3770445.852410
258,106493368,18.616944,-34.055326,Portland,MONDALE,PUBLIC,87.0,37,10,22,25,1,98,1,0,92,77,-35365.686184,-3769864.564850
112,105313602,18.537621,-33.993218,Hanover Park,CRYSTAL,PUBLIC,48.5,24,16,23,45,1,99,0,0,26,52,-42720.354794,-3763005.543520
46,105483311,18.512441,-33.975773,Rustdale,ALEXANDER SINTON,PUBLIC,87.6,35,8,24,32,4,91,4,0,68,77,-45056.023231,-3761081.263750
253,106493457,18.594598,-34.032523,Woodlands,WOODLANDS,PUBLIC,67.0,30,14,23,31,4,96,0,0,73,66,-37438.815061,-3767343.109220
76,103310246,18.408375,-33.933575,Gardens,JAN VAN RIEBEECK,PUBLIC,100.0,52,4,20,37,9,9,1,81,43,80,-54700.025397,-3756451.116500
246,106007102,18.579619,-34.018169,Weltevreden Valley Nort,ZISUKHANYO,PUBLIC,57.0,25,28,16,44,80,19,0,0,59,35,-38828.669609,-3765756.485740
59,105310291,18.478521,-33.956757,Rosebank,RUSTENBURG,PUBLIC,100.0,40,1,30,32,8,7,6,79,60,90,-48201.376892,-3758987.367720
64,105000820,18.473996,-33.959832,Rondebosch,ST. JOSEPH'S,INDEPENDENT,93.9,40,1,30,32,8,7,6,79,60,90,-48617.887187,-3759330.592830
56,105008028,18.503800,-33.970165,Athlone,PREMIER COLLEGE,,59.7,37,7,24,35,2,92,5,0,75,85,-45857.568338,-3760463.036070
49,105000817,18.472307,-33.951852,Rosebank,DAMELIN,INDEPENDENT,94.9,28,2,59,39,22,6,5,67,31,73,-48778.554676,-3758446.226230
108,105483486,18.551866,-33.996010,Manenberg,MANENBERG,PUBLIC,59.0,24,19,22,54,5,95,0,0,32,51,-41402.858870,-3763309.395160
7,103313416,18.409865,-33.923828,Schotschekloof,VISTA,PUBLIC,65.7,49,2,22,30,4,6,0,90,69,92,-54568.478035,-3755369.153630
70,103310325,18.378287,-33.944025,Camps Bay,CAMPS BAY,PUBLIC,99.1,49,2,22,30,4,6,0,90,69,92,-57474.897250,-3757626.713530
47,105483362,18.519413,-33.972357,Belgravia,BELGRAVIA,PUBLIC,91.7,35,8,24,32,4,91,4,0,68,77,-44413.501109,-3760699.307330
54,105483516,18.508525,-33.968575,Zwartdam,NED DOMAN,PUBLIC,33.9,37,7,24,35,2,92,5,0,75,85,-45421.736860,-3760284.564810
50,105483435,18.496650,-33.962107,Athlone SP,GARLANDALE,PUBLIC,72.0,37,7,24,35,2,92,5,0,75,85,-46522.747151,-3759572.436070
256,106003396,18.624069,-34.056060,Eastridge,MITCHELL'S PLAIN,INDEPENDENT,76.9,29,15,23,43,4,96,0,0,75,63,-34707.567055,-3769943.543350
250,106493376,18.611266,-34.040323,Portland,PORTLAND,PUBLIC,69.3,37,10,22,25,1,98,1,0,92,77,-35896.232928,-3768202.346130
74,103310238,18.417144,-33.932848,Gardens,GOOD HOPE,PUBLIC,98.6,52,4,20,37,9,9,1,81,43,80,-53889.714947,-3756365.836260
80,105008275,18.504983,-33.961824,Athlone SP,STONEFOUNTAIN,INDEPENDENT,48.4,37,7,24,35,2,92,5,0,75,85,-45752.703495,-3759537.296050
83,103313335,18.428216,-33.933179,Zonnebloem,TRAFALGAR,PUBLIC,81.5,36,6,37,36,22,43,2,33,31,67,-52865.802109,-3756396.793610
84,103310328,18.439269,-33.933893,Zonnebloem,ZONNEBLOEM,PUBLIC,73.1,40,8,23,34,7,68,8,17,63,82,-51843.422547,-3756470.354530
75,103313378,18.424859,-33.931328,Zonnebloem,HAROLD CRESSY,PUBLIC,88.3,36,6,37,36,22,43,2,33,31,67,-53177.336895,-3756193.208830
2,103007511,18.433764,-33.933701,Cape Town CBD,Y2K,INDEPENDENT,77.3,36,6,37,36,22,43,2,33,31,67,-52352.529616,-3756451.808960
71,103310213,18.414887,-33.931889,Cape Town CBD,CAPE TOWN,PUBLIC,86.4,47,11,28,44,34,19,6,41,20,64,-54099.001883,-3756260.648120
73,103307200,18.416086,-33.930287,Cape Town CBD,GARDENS,PUBLIC,95.8,47,11,28,44,34,19,6,41,20,64,-53989.152914,-3756082.317610
82,105041120,18.471174,-33.945665,Mowbray,THANDOKHULU,PUBLIC,81.6,35,4,44,40,32,15,3,50,36,66,-48886.824799,-3757760.483370
44,106493317,18.607006,-34.029874,Lentegeur,ALOE,PUBLIC,50.8,30,13,25,30,3,97,0,0,82,67,-36294.059158,-3767044.803450
240,106323969,18.580654,-34.006583,Browns Farms,INTSEBENZISWANO,PUBLIC,60.0,21,33,16,42,95,5,0,0,33,13,-38738.332332,-3764470.931460
60,105062458,18.534984,-33.972465,Gatesville,RYLANDS,PUBLIC,93.7,37,6,28,24,2,22,76,0,70,87,-42974.438914,-3760704.651440
48,105008274,18.519829,-33.965283,Belgravia,CENTRAL COLLEGE,,57.1,35,8,24,32,4,91,4,0,68,77,-44378.730448,-3759914.455790
107,106042118,18.561672,-33.992976,Gugulethu SP,INTSHUKUMO,PUBLIC,47.8,24,26,19,56,99,1,0,0,65,52,-40498.320600,-3762968.934450
244,106041230,18.590026,-34.011582,Browns Farms,SINETHEMBA,PUBLIC,52.7,21,33,16,42,95,5,0,0,33,13,-37870.341073,-3765021.934230
104,105007063,18.540763,-33.978013,Surrey,DARUL ISLAM ISLAMI,INDEPENDENT,87.7,32,7,28,23,3,91,6,1,81,89,-42437.611903,-3761317.646720
261,106493414,18.634485,-34.055010,Tafelsig,TAFELSIG,PUBLIC,64.0,25,18,21,36,4,95,1,0,69,54,-33746.328246,-3769823.588380
248,106493392,18.610443,-34.029908,Lentegeur,LENTEGEUR,PUBLIC,69.1,30,13,25,30,3,97,0,0,82,67,-35976.626708,-3767047.361760
65,105007284,18.499509,-33.956302,Sybrandpark,STAR INTERNATIONAL,INDEPENDENT,100.0,44,2,21,21,8,43,11,38,89,97,-46261.640026,-3758927.233360
77,103310281,18.453389,-33.935342,Woodstock,QUEEN'S PARK,PUBLIC,72.7,40,8,23,34,7,68,8,17,63,82,-50537.060545,-3756624.039430
92,105483540,18.507600,-33.958200,Hazendal,SPES BONA,PUBLIC,49.6,28,13,25,43,2,96,2,0,69,57,-45512.750877,-3759134.145930
110,105483559,18.556843,-33.985428,Manenberg,SILVERSTREAM,PUBLIC,63.6,24,19,22,54,5,95,0,0,32,51,-40948.108694,-3762133.603180
57,105310284,18.480784,-33.944826,Mowbray,RHODES,PUBLIC,80.0,35,4,44,40,32,15,3,50,36,66,-47998.898967,-3757662.881590
63,103000819,18.479913,-33.946048,Mowbray,ST. GEORGE'S GRAMM,INDEPENDENT,96.7,35,4,44,40,32,15,3,50,36,66,-48078.732281,-3757798.837460
243,106008278,18.596074,-34.016003,Heinz Park,PHILLIPI,PUBLIC,40.2,21,33,16,42,95,5,0,0,33,13,-37309.734450,-3765510.108190
6,102000570,18.463849,-33.938129,Rosebank,ROSEMEADE,INDEPENDENT,60.0,45,5,33,42,17,14,3,66,40,79,-49568.352678,-3756928.080610
247,106493325,18.629361,-34.045381,Beacon Valley,BEACON HILL,PUBLIC,79.3,29,15,23,43,4,96,0,0,75,63,-34223.274914,-3768757.201480
86,105483346,18.521873,-33.962178,Silvertown,ATHLONE,PUBLIC,81.3,31,10,22,42,7,92,1,0,80,75,-44191.422371,-3759569.156610
81,105315611,18.389711,-33.915736,Sea Point,TAFELBERG,PUBLIC,90.9,49,4,19,42,13,9,2,76,45,81,-56437.425346,-3754482.470000
263,103000801,18.416960,-33.921830,Cape Town CBD,BOSTON HOUSE,INDEPENDENT,80.0,47,11,28,44,34,19,6,41,20,64,-53913.669057,-3755143.780440
239,106042101,18.574078,-33.996741,New Crossroads,SITHEMBELE MATISO,PUBLIC,28.6,19,28,22,51,100,0,0,0,35,38,-39350.352460,-3763381.727870
106,106042301,18.567748,-33.991137,Gugulethu SP,I. D. MKIZE SEN,PUBLIC,80.2,24,26,19,56,99,1,0,0,65,52,-39937.798717,-3762762.561700
78,103313459,18.462767,-33.935478,Observatory,SALT RIVER,PUBLIC,66.7,37,7,26,39,8,82,6,3,63,83,-49669.926439,-3756634.546630
109,105483494,18.556878,-33.978267,Manenberg,PHOENIX,PUBLIC,72.6,24,19,22,54,5,95,0,0,32,51,-40948.308347,-3761339.267350
43,106041343,18.601378,-34.008164,Philippi SP,VUYISEKA,PUBLIC,52.4,21,33,16,42,95,5,0,0,33,13,-36823.196900,-3764638.658430
249,106493503,18.631496,-34.037177,Beacon Valley,OVAL NORTH,PUBLIC,81.5,30,15,22,31,4,96,0,0,74,65,-34029.413241,-3767846.469120
79,103310297,18.392920,-33.910778,Sea Point,SEA POINT,PUBLIC,97.9,49,4,19,42,13,9,2,76,45,81,-56143.925306,-3753930.741520
105,106042201,18.569213,-33.984701,Gugulethu SP,FEZEKA,PUBLIC,75.4,24,26,19,56,99,1,0,0,65,52,-39805.440133,-3762048.089050
90,105483524,18.525464,-33.954756,Bridgetown,PEAK VIEW,PUBLIC,43.2,31,9,24,36,1,99,0,0,82,81,-43863.326147,-3758744.344010
8,105483397,18.530180,-33.958230,Bridgetown,BRIDGETOWN,PUBLIC,73.0,31,9,24,36,1,99,0,0,82,81,-43425.638036,-3759127.683990
91,103007340,18.532511,-33.953892,Bridgetown,OF HOPE,INDEPENDENT,33.3,31,9,24,36,1,99,0,0,82,81,-43212.364010,-3758645.478950
168,106042317,18.595025,-33.998453,Crossroads,DR.NELSON R. MANDE,PUBLIC,44.6,20,25,23,47,100,0,0,0,48,36,-37414.324676,-3763563.782310
10,102007105,18.506927,-33.939781,Pinelands,CANONS,INDEPENDENT,100.0,41,2,21,24,6,7,2,85,79,95,-45584.776324,-3757091.353590
111,105483400,18.548920,-33.962930,Heideveld,CATHKIN,PUBLIC,80.4,27,14,23,45,3,96,0,1,47,63,-41691.186128,-3759641.246110
66,105315613,18.510219,-33.940983,Rondebosch,VISTA NOVA,PUBLIC,100.0,41,2,21,24,6,7,2,85,79,95,-45279.749697,-3757223.261780
241,106313939,18.613007,-34.009158,Philippi East,PHAKAMA,PUBLIC,61.9,21,33,16,42,95,5,0,0,33,13,-35748.530941,-3764744.797100
26,106493554,18.588973,-33.987014,Crossroads,NEW EISLEBEN,PUBLIC,52.3,19,28,22,51,100,0,0,0,35,38,-37978.570090,-3762297.178520
102,102310278,18.507223,-33.936965,Pinelands,PINELANDS,PUBLIC,100.0,41,2,21,24,6,7,2,85,79,95,-45558.910655,-3756778.863450
98,102042218,18.533866,-33.947997,Langa SP,KULANI,PUBLIC,35.6,27,25,20,46,100,0,0,0,37,32,-43090.094523,-3757991.055180
11,105483451,18.560311,-33.962744,Heideveld,HEIDEVELD,PUBLIC,83.2,27,14,23,45,3,96,0,1,47,63,-40638.450513,-3759616.042280
99,102042103,18.529842,-33.944488,Langa SP,LANGA,PUBLIC,56.0,27,25,20,46,100,0,0,0,37,32,-43463.865579,-3757603.524310
100,103323829,18.483169,-33.920352,Maitland,MAITLAND,PUBLIC,73.1,39,10,21,29,14,72,3,11,52,71,-47792.085432,-3754947.041780
101,103303206,18.504340,-33.924714,Ndabeni,OUDE MOLEN,PUBLIC,83.0,38,13,21,25,0,17,0,83,0,33,-45832.018507,-3755421.232880
255,106008233,18.661833,-34.050547,Village 1 South,OF SCIENCE AND TEC,PUBLIC,100.0,33,19,18,37,100,0,0,0,87,49,-31223.006605,-3769319.875820
242,106008035,18.623930,-34.006110,Philippi East,LOWER CROSSROADS,PUBLIC,46.5,21,33,16,42,95,5,0,0,33,13,-34740.752972,-3764402.944310
96,102042104,18.540082,-33.946123,Langa SP,ISILIMELA,PUBLIC,61.9,27,25,20,46,100,0,0,0,37,32,-42516.405668,-3757780.592590
89,102483508,18.559985,-33.956029,Bonteheuwel,MODDERDAM,PUBLIC,47.0,26,16,23,43,1,99,0,0,61,60,-40671.776835,-3758871.324280
136,102483605,18.634394,-34.015092,Tembani,ZOLA,PUBLIC,68.0,30,20,20,38,99,0,0,0,88,46,-33770.544047,-3765395.759360
138,106323128,18.672963,-34.055577,Harare/Holimisa,KWAMFUNDO,PUBLIC,42.6,23,26,19,38,100,0,0,0,66,35,-30193.614094,-3769874.459120
95,102041321,18.540190,-33.943548,Langa SP,IKAMVALETHU,PUBLIC,40.6,27,25,20,46,100,0,0,0,37,32,-42507.701677,-3757494.921770
88,102483389,18.547322,-33.947876,Bonteheuwel,BONTEHEUWEL,PUBLIC,74.6,26,16,23,43,1,99,0,0,61,60,-41846.251864,-3757972.063640
94,103000809,18.493769,-33.920322,Maitland,HOLY CROSS,INDEPENDENT,96.8,39,10,21,29,14,72,3,11,52,71,-46811.895211,-3754938.830460
139,106041101,18.661828,-34.041003,Village 1 North,LUHLAZA,PUBLIC,44.1,25,22,23,54,100,0,0,0,70,54,-31226.997063,-3768261.194960
17,106373435,18.663809,-34.036156,Village 1 South,MANYANO,PUBLIC,44.9,25,22,23,54,100,0,0,0,70,54,-31045.803359,-3767722.902990
85,102483338,18.556688,-33.947579,Bonteheuwel,ARCADIA,PUBLIC,56.5,26,16,23,43,1,99,0,0,61,60,-40980.580112,-3757935.339010
133,106041220,18.657692,-34.032427,Village 1 North,JOE SLOVO,PUBLIC,75.5,25,22,23,54,100,0,0,0,70,54,-31612.100525,-3767311.182090
132,106041318,18.641669,-34.013115,Ikwezi Park,INTLANGANISO,PUBLIC,72.5,21,29,19,43,100,0,0,0,32,27,-33099.325769,-3765174.088780
143,102323934,18.685001,-34.058829,Town 3,ESANGWENI,PUBLIC,38.1,27,30,11,42,97,3,0,0,56,8,-29081.093651,-3770231.696980
135,103323926,18.658500,-34.025800,Victoria Mxenge 1,USASAZO,PUBLIC,46.5,22,29,18,47,100,0,0,0,56,24,-31539.933396,-3766575.841820
9,105008025,18.518108,-33.922769,Tokai,LEAP,INDEPENDENT,97.1,41,2,21,24,6,7,2,85,79,95,-44559.938826,-3755199.427220
87,102483354,18.574499,-33.956130,Valhalla Park,BEAUVALLON,PUBLIC,43.6,21,20,24,53,2,96,3,0,37,47,-39330.152565,-3758876.867510
146,106041339,18.681200,-34.049120,Mandela Park,UXOLO,PUBLIC,64.0,27,19,22,42,99,1,0,0,86,54,-29435.363564,-3769155.822790
137,106041121,18.672728,-34.038813,Village 2 North,BULUMKO,PUBLIC,41.5,25,22,24,52,100,0,0,0,53,56,-30221.257331,-3768014.999910
93,103310208,18.483522,-33.905507,Brooklyn,BUREN,PUBLIC,75.8,37,7,22,32,8,33,1,58,53,71,-47767.724451,-3753300.232560
140,106041105,18.667271,-34.029642,Village 2 North,MASIYILE,PUBLIC,34.0,25,22,24,52,100,0,0,0,53,56,-30728.481283,-3766999.343200
145,103313947,18.677005,-34.040799,Griffiths Mxenge,THEMBELIHLE,PUBLIC,58.3,23,23,22,44,100,0,0,0,54,39,-29825.609839,-3768234.039970
20,106323144,18.691981,-34.051736,Mandela Park,SIZIMISELE,PUBLIC,63.0,27,19,22,42,99,1,0,0,86,54,-28439.057766,-3769442.950980
25,103313920,18.633087,-33.992654,Delft South,MASIBAMBISANE,PUBLIC,50.6,18,27,18,44,57,42,0,0,42,29,-33900.184247,-3762907.293740
18,106323993,18.676668,-34.032769,Village 2 North,KHAYELITSHA,PUBLIC,52.1,25,22,24,52,100,0,0,0,53,56,-29859.522805,-3767343.463190
141,106324086,18.676585,-34.032648,Ekuphumleni,KHAYELITSHA,PUBLIC,33.3,25,22,24,52,100,0,0,0,53,56,-29867.249735,-3767330.023240
196,102483370,18.577032,-33.947071,Bishop Lavis,BISHOP LAVIS,PUBLIC,61.8,28,16,23,41,2,98,0,0,67,57,-39100.162197,-3757871.050820
97,103323810,18.506993,-33.908430,Kensington,KENSINGTON,PUBLIC,86.7,38,7,24,29,4,94,2,0,76,86,-45595.374685,-3753613.790560
134,106041102,18.667614,-34.022009,Village 3 North,MATTHEW GONIWE,PUBLIC,86.9,23,28,18,43,100,0,0,0,46,25,-30699.552612,-3766152.560810
169,107007994,18.636420,-33.970690,Delft SP,LEIDEN,PUBLIC,42.2,27,26,9,27,11,89,0,0,12,35,-33600.878036,-3760469.885620
19,103323918,18.695670,-34.051421,T3-V4,HARRY GWALA,PUBLIC,45.2,25,27,16,38,100,0,0,0,64,27,-28098.517076,-3769406.977420
200,102483478,18.586980,-33.949533,Bishop Lavis,JOHN RAMSAY,PUBLIC,76.2,28,16,23,41,2,98,0,0,67,57,-38179.440063,-3758140.395580
103,103323837,18.515978,-33.907154,Windermere,WINDERMERE,PUBLIC,74.6,29,14,21,41,1,99,0,0,72,65,-44765.063278,-3753468.301160
192,102483532,18.568855,-33.932263,The Range,RANGE,PUBLIC,72.1,28,17,22,55,6,93,1,0,73,51,-39862.969712,-3756231.656930
171,107007096,18.641741,-33.985369,Delft South,SIMUNYE,PUBLIC,39.7,18,27,18,44,57,42,0,0,42,29,-33103.436122,-3762096.390640
142,106041332,18.706034,-34.046896,T3-V3,CHRIS HANI,PUBLIC,43.7,25,27,16,38,100,0,0,0,64,27,-27143.097527,-3768902.262970
201,102489220,18.587592,-33.939181,Adriaanse,MARIAN,PUBLIC,94.0,21,22,21,53,3,96,1,0,20,37,-38127.481813,-3756991.898570
144,110007280,18.699750,-34.041910,T3-V5,KHAYELITSHA,PUBLIC,35.4,23,27,17,36,99,1,0,0,57,27,-27724.949797,-3768350.881640
195,102483575,18.563023,-33.920012,Valhalla,VALHALLA,PUBLIC,34.5,35,10,23,28,2,89,8,1,70,70,-40407.975443,-3754875.028450
197,102483419,18.570112,-33.923831,Norwood,ELSIESRIVIER,PUBLIC,85.4,35,10,23,28,2,89,8,1,70,70,-39750.665592,-3755295.872840
128,999042109,18.680297,-34.007367,Mfuleni,MANZOMTHOMBO,,75.0,22,42,10,27,98,2,0,0,11,0,-29533.180941,-3764524.655380
173,103007278,18.519141,-33.881913,Century City,ABBOTT'S,INDEPENDENT,99.0,95,0,0,0,0,0,0,0,0,100,-44485.632706,-3750667.145560
190,102310219,18.554795,-33.914743,Ruyterwacht,GOODWOOD,PUBLIC,95.8,40,7,22,29,2,80,2,17,67,77,-41171.371889,-3754293.848300
202,102483591,18.592542,-33.934053,Connaught,ST.ANDREW'S,PUBLIC,75.2,27,18,22,43,3,95,2,0,61,56,-37672.105326,-3756421.260900
179,102310245,18.549629,-33.907994,Goodwood Estate,J.G.MEIRING,PUBLIC,96.8,45,4,23,23,2,20,3,75,76,87,-41652.396580,-3753547.318420
203,102483567,18.597946,-33.934006,Uitsig,UITZIG,PUBLIC,75.0,25,17,23,41,2,98,0,0,32,43,-37172.488153,-3756414.077160
187,102062450,18.586329,-33.924951,Cravenby,CRAVENBY,PUBLIC,84.9,39,8,25,37,1,20,78,1,69,82,-38250.609562,-3755413.944800
160,107008031,18.670330,-33.989890,Mfuleni,MFULENI,PUBLIC,77.8,23,25,20,37,94,6,0,0,35,28,-30460.163696,-3762589.008050
32,101323500,18.610716,-33.944573,Belhar 1,BELHAR,PUBLIC,85.2,42,5,28,26,5,92,2,1,86,91,-35987.365878,-3757581.641080
199,101007216,18.617770,-33.940637,Bonteheuwel,IQRA,INDEPENDENT,81.8,42,5,28,26,5,92,2,1,86,91,-35336.881317,-3757142.599320
172,107323845,18.651717,-33.973274,Voorbrug,VOORBRUG,PUBLIC,46.8,26,15,25,27,4,96,0,0,82,51,-32186.198850,-3760751.602480
188,102483427,18.577465,-33.915793,Leonsdale,ELSWOOD,PUBLIC,42.9,26,18,22,51,4,96,0,0,38,43,-39074.416605,-3754401.458370
198,101323616,18.620769,-33.945358,Belhar 4,EXCELSIOR,PUBLIC,70.2,39,9,24,23,9,89,2,0,86,85,-35057.689082,-3757665.234730
193,101323624,18.600558,-33.927954,Ravensmead,RAVENSMEAD,PUBLIC,93.7,34,12,23,35,2,97,0,0,76,66,-36933.602802,-3755741.833270
27,107324078,18.659218,-33.973618,Diepwater,WESBANK,PUBLIC,62.7,24,24,14,34,13,87,0,0,50,31,-31492.872050,-3760787.430540
184,103353491,18.509155,-33.874055,Joe Slovo Park,SENENJONGO,PUBLIC,97.3,27,21,22,34,97,3,0,0,31,19,-45413.636928,-3749799.889920
183,102310280,18.569164,-33.903558,Richmond Estate,SIDENT,PUBLIC,95.1,44,4,24,20,2,18,1,78,74,83,-39847.760006,-3753047.518170
30,102310231,18.563252,-33.898483,Richmond Estate,FAIRBAIRN,PUBLIC,100.0,44,4,24,20,2,18,1,78,74,83,-40396.954713,-3752486.899150
189,101323373,18.605807,-33.925584,Ravensmead,FLORIDA,PUBLIC,50.9,34,12,23,35,2,97,0,0,76,66,-36449.271101,-3755477.071810
170,107323101,18.648136,-33.960569,Roosendal,ROSENDAAL,PUBLIC,59.8,28,13,23,27,2,97,0,0,84,55,-32521.970188,-3759343.461010
178,102007204,18.561175,-33.897503,Vasco Estate,EMMANUEL,INDEPENDENT,80.0,45,4,25,21,2,17,2,79,77,85,-40589.532348,-3752379.014500
163,101323659,18.632777,-33.944255,Belhar 6,SYMPHONY,PUBLIC,63.3,40,8,26,22,10,85,2,2,84,84,-33948.051686,-3757538.849580
180,103310260,18.496813,-33.871765,Milnerton SP,MILNERTON,PUBLIC,99.4,46,4,20,19,5,7,2,86,71,86,-46556.789744,-3749551.400370
161,101323772,18.644731,-33.948423,Belhar 16,PERSEVERANCE,PUBLIC,71.6,29,16,23,44,1,98,0,0,74,61,-32841.353908,-3757997.282770
129,107323187,18.699754,-34.001747,Tuscany Glen,TUSCANY GLEN,PUBLIC,65.4,41,7,19,34,7,92,1,0,88,77,-27737.642585,-3763895.865860
127,107323802,18.695439,-33.994499,Malibu Village,MALIBU,PUBLIC,83.2,34,10,20,27,6,93,1,0,87,67,-28138.666533,-3763093.072950
125,107323853,18.708305,-34.002296,Forest Heights,FOREST HEIG,PUBLIC,57.1,38,8,22,41,5,93,1,1,85,71,-26947.499095,-3763954.480540
181,102008374,18.555762,-33.879507,,,,87.5,46,2,26,11,2,4,2,93,93,96,-41098.846480,-3750385.020460
124,107323861,18.731396,-34.018846,High Places,EERSTERIVIER,PUBLIC,84.2,28,19,18,35,4,95,1,0,77,56,-24809.475901,-3765784.423810
126,110323527,18.764907,-34.063217,Macassar SP,MACASSAR,PUBLIC,59.4,34,10,21,28,1,98,0,0,67,52,-21702.937061,-3770698.597710
177,102310230,18.552306,-33.871627,Edgemead,EDGEMEAD,PUBLIC,100.0,47,2,22,17,1,3,1,95,88,96,-41422.388981,-3749512.346910
28,102310204,18.534372,-33.859600,Bothasig,BOSMANSDAM,PUBLIC,98.4,46,3,21,18,1,7,1,90,86,91,-43087.728486,-3748185.665170
130,110323780,18.764701,-34.055957,Macassar SP,ZANDVLIET,PUBLIC,69.7,34,10,21,28,1,98,0,0,67,52,-21723.806494,-3769893.334540
159,107323977,18.675388,-33.949818,Kuils River,KUI RIVER,PUBLIC,90.1,43,4,22,22,9,90,1,1,86,79,-30006.894380,-3758142.629240
191,101310274,18.602830,-33.901283,Oostersee,PAROW,PUBLIC,95.7,45,4,25,30,1,10,1,88,63,80,-36734.968020,-3752782.621240
13,107323888,18.704331,-33.983094,Dennemere,BLACKHEATH,PUBLIC,54.6,38,8,22,22,3,97,0,0,91,78,-27320.819520,-3761825.551110
194,101310310,18.594447,-33.893301,De Tijger,TYGERBERG,PUBLIC,99.5,50,3,26,14,0,3,4,93,86,96,-37513.826804,-3751900.274630
118,107323578,18.712480,-33.987857,Kleinvlei,KLEINVLEI,PUBLIC,83.2,29,15,21,38,3,97,0,0,60,45,-26566.294926,-3762351.775620
157,101323349,18.637909,-33.919405,Bellville Lot 2,BELLVILLE-SUID,PUBLIC,54.4,33,11,23,35,2,97,1,0,46,53,-33483.343715,-3754780.751880
162,105008252,18.680257,-33.948613,Highbury,SILVERSANDS,PUBLIC,81.8,43,4,22,22,9,90,1,1,86,79,-29557.222378,-3758007.554650
210,101310308,18.607752,-33.897307,Bellville West,THE SETTLERS,PUBLIC,99.1,22,4,14,60,3,12,0,85,7,89,-36281.404629,-3752339.847840
158,101323586,18.643660,-33.916205,Mimosa,KASSELSVLEI KOM,PUBLIC,67.2,33,11,23,35,2,97,1,0,46,53,-32952.765414,-3754423.941790
16,107003389,18.669065,-33.936865,Kalkfontein,GOOD HOPE,INDEPENDENT,77.6,35,10,24,28,3,96,0,0,79,73,-30595.995558,-3756707.738100
29,102008218,18.550940,-33.857664,Tijgerhof,UNITY CHRISTIAN,INDEPENDENT,100.0,46,3,21,18,1,7,1,90,86,91,-41555.541867,-3747964.104810
186,103310307,18.498277,-33.831161,Flamingo Vlei,TABLE VIEW,PUBLIC,100.0,50,3,20,26,2,2,1,95,74,88,-46443.303235,-3745046.888490
155,107008229,18.679197,-33.939578,Bellville Teachers' Tra,WESTERN CAPE ORT,PUBLIC,84.6,43,4,22,22,9,90,1,1,86,79,-29658.322778,-3757005.655470
175,103008276,18.489451,-33.827452,Table View,CAPE TOWN,INDEPENDENT,100.0,50,3,20,26,2,2,1,95,74,88,-47262.354211,-3744639.500820
205,101310217,18.627111,-33.893679,Boston,D.F. MALAN,PUBLIC,100.0,47,2,21,26,2,6,1,90,65,83,-34492.223618,-3751930.756840
156,101324612,18.653361,-33.917592,Glenhaven,ATHLONE  SCHOOL FO,PUBLIC,45.2,41,2,30,20,4,91,5,1,65,87,-32055.125699,-3754574.682640
120,107323748,18.665802,-33.926949,Sarepta,SAREPTA,PUBLIC,58.3,42,3,27,24,1,97,1,0,87,87,-30901.281673,-3755608.799400
116,101007208,18.644864,-33.901057,Belgravia,BOSTON,INDEPENDENT,93.2,54,2,20,24,2,6,0,92,49,74,-32847.234293,-3752743.316450
174,103008009,18.487498,-33.817504,Blouberg Rise,BLOUBERGRANT,PUBLIC,100.0,50,3,20,26,2,2,1,95,74,88,-47448.642518,-3743536.958430
24,101303200,18.662556,-33.912702,Labiance,BELLVILLE,PUBLIC,97.4,42,4,21,20,4,32,1,64,80,85,-31206.607064,-3754029.527360
15,107310218,18.685121,-33.925611,Elim,DE KUILEN,PUBLIC,98.6,40,3,26,15,1,22,1,76,78,89,-29115.417967,-3755454.738790
117,107315607,18.680553,-33.924172,Elim,JAN KRIEL,PUBLIC,95.0,40,3,26,15,1,22,1,76,78,89,-29538.318587,-3755296.451910
23,110007281,18.832810,-34.118229,Die Bos,VALSBAAI,INDEPENDENT,100.0,31,3,21,42,4,3,0,93,35,80,-15424.388697,-3776788.434000
115,101310200,18.648534,-33.893101,Chrismar,BELLVILLE,PUBLIC,99.2,36,2,21,22,1,4,0,95,70,88,-32510.806179,-3751859.658920
182,103007232,18.508971,-33.817684,Parklands,PARKLANDS,INDEPENDENT,100.0,57,3,13,21,4,4,2,89,77,80,-45460.507276,-3743547.234270
154,101008201,18.833713,-34.110221,Strand SP,MIL STREET,INDEPENDENT,100.0,31,4,25,30,2,3,0,94,55,81,-15342.526735,-3775900.013610
153,111007200,18.842433,-34.121960,Weltevreden,MADRASATUR RAJAA,INDEPENDENT,93.3,31,14,22,31,1,95,3,1,44,54,-14535.963709,-3777200.882860
151,111310327,18.839386,-34.101963,Strand SP,STRAND,PUBLIC,100.0,31,4,25,30,2,3,0,94,55,81,-14820.544779,-3774983.162000
152,111323721,18.849020,-34.122912,Onverwacht,STRAND,PUBLIC,61.3,26,14,27,49,19,79,0,2,6,9,-13928.139269,-3777305.565380
147,110323438,18.834593,-34.086335,Firgrove Rural,GORDON,PUBLIC,76.0,46,5,19,17,5,90,0,5,82,81,-15265.621269,-3773250.343140
150,111323896,18.857498,-34.127132,Rusthof,RUSTHOF,PUBLIC,78.9,32,12,22,29,4,93,1,1,80,62,-13145.376857,-3777772.544260
22,111322504,18.857934,-34.108121,Strand SP,SIMANYENE,PUBLIC,46.9,42,5,24,20,0,4,0,95,89,92,-13108.089947,-3775663.699890
148,110310242,18.845407,-34.092691,Van Der Stel,HOTTENTOTS-HOLLAND,PUBLIC,97.3,43,4,26,16,1,6,0,93,79,90,-14266.516376,-3773953.815080
123,110007510,18.844401,-34.079589,Andas Estate,SOMERSET WEST,INDEPENDENT,100.0,41,4,19,31,3,23,1,72,41,84,-14361.566487,-3772500.628440
33,101310232,18.641060,-33.852968,Eversdal Heights,FAIRMONT,PUBLIC,100.0,48,2,27,10,2,7,1,90,85,94,-33217.692339,-3747410.417090
209,101310326,18.662111,-33.863589,Stellenryk,STELLENBERG,PUBLIC,99.2,48,1,28,19,1,2,0,97,86,96,-31265.681429,-3748581.947410
176,103000802,18.510465,-33.809855,Parklands Ext,CBC GREEN,INDEPENDENT,100.0,46,4,20,19,5,7,2,86,71,86,-45326.317355,-3742678.178290
185,103007427,18.486758,-33.801928,Sunningdale,SUNNINGDALE,INDEPENDENT,100.0,46,4,20,19,5,7,2,86,71,86,-47525.735555,-3741809.574960
21,111323942,18.865033,-34.118896,Lwandle,KHANYOLWETHU,PUBLIC,24.4,28,4,45,37,99,1,0,0,1,7,-12451.502724,-3776858.023980
31,103373443,18.541814,-33.812464,Dunoon,INKWENKWEZI,PUBLIC,69.2,46,4,20,19,5,7,2,86,71,86,-42422.383684,-3742954.211230
14,107310205,18.687605,-33.871269,Arauna,BRACKENFELL,PUBLIC,99.7,47,2,21,9,1,8,0,91,92,92,-28904.062648,-3749426.358240
206,101310227,18.643223,-33.830781,Durbanville SP,DURBANVILLE,PUBLIC,99.3,45,2,20,24,2,5,0,93,64,84,-33026.063372,-3744948.773080
149,110310273,18.857374,-34.066553,Parel Vallei,PAREL,PUBLIC,100.0,38,2,30,12,0,1,0,98,84,97,-13166.192698,-3771052.879170
131,110000838,18.841221,-34.053233,Helderrand,HELDERBERG,INDEPENDENT,100.0,42,8,24,16,42,38,0,20,9,45,-14659.614434,-3769577.573400
264,101007210,18.684972,-33.843863,Sonstraal Heights,CURRO,INDEPENDENT,72.3,54,1,17,17,1,2,0,96,69,71,-29156.991550,-3746387.215600
204,101323764,18.726409,-33.866292,Scottsdene,BERNADINO HEIGHTS,PUBLIC,86.7,32,12,22,31,2,98,0,0,68,53,-25315.215832,-3748864.074380
122,101323632,18.712386,-33.851991,Peerless Park West,SCOTTSVILLE,PUBLIC,61.3,34,12,24,37,1,99,0,0,77,64,-26617.196445,-3747281.343240
121,101323039,18.724391,-33.861144,Scottsdene,SCOTTSDENE,PUBLIC,45.0,32,12,22,31,2,98,0,0,68,53,-25503.471305,-3748293.554770
34,107323136,18.732237,-33.859142,Wallacedene,HECTOR PETERSON,PUBLIC,54.8,24,33,13,34,81,19,0,0,50,10,-24778.059631,-3748069.551160
119,101310264,18.713820,-33.838766,Windsor Park Estate,MONUMENT,PUBLIC,98.0,46,10,14,19,1,43,1,56,50,40,-26488.567497,-3745814.054400
207,101310229,18.728585,-33.845676,Belmont Park,EBEN DONGES,PUBLIC,89.5,39,6,25,20,5,46,1,49,84,74,-25119.906122,-3746576.808590
35,107007987,18.747913,-33.842902,Kraaifontein East NU,BLOEKOMBOS,PUBLIC,75.8,17,39,14,32,92,8,0,0,52,5,-23331.832394,-3746264.531050
208,107393436,18.747978,-33.842753,Bloekombos,BLOEKOMBOS,PUBLIC,95.7,17,39,14,32,92,8,0,0,52,5,-23325.841631,-3746248.023140
165,132473332,18.499836,-33.574482,Protea Park,PROTEUS,PUBLIC,55.0,30,15,21,33,1,98,0,0,79,53,-46436.899896,-3716575.693250
164,132473316,18.486395,-33.565779,Avondale,ATLANTIS,PUBLIC,70.0,30,15,21,33,1,98,0,0,79,53,-47689.605162,-3715616.493460
166,132473464,18.504440,-33.566794,Robinvale,ROBINVALE,PUBLIC,69.8,29,15,22,32,2,98,0,0,60,52,-46013.523340,-3715720.914750
167,132473324,18.486000,-33.548746,Saxonsea,SAXONSEA,PUBLIC,81.1,30,13,22,34,4,96,0,0,82,54,-47735.651134,-3713727.440280
238,106042203,18.583454,-33.993954,New Crossroads,OSCAR MPETHA,PUBLIC,41.8,19,28,22,51,100,0,0,0,35,38,-38485.367440,-3763069.023320
